{
  "type": "FeatureCollection",
  "features": [
    {
      "type": "Feature",
      "geometry": {
        "type": "Point",
        "coordinates": [
          6.800666,
          50.998973
        ]
      },
      "properties": {
        "name": "1303 Pulheim"
      },
      "id": "uNlj3"
    },
    {
      "type": "Feature",
      "geometry": {
        "type": "Point",
        "coordinates": [
          6.889855,
          51.087294
        ]
      },
      "properties": {
        "name": "1970 Monheim am Rhein"
      },
      "id": "MDXCd"
    },
    {
      "type": "Feature",
      "geometry": {
        "type": "Point",
        "coordinates": [
          6.058241,
          50.769661
        ]
      },
      "properties": {
        "name": "1990 Aachen, Vaalser Str."
      },
      "id": "HQqPu"
    },
    {
      "type": "Feature",
      "geometry": {
        "type": "Point",
        "coordinates": [
          9.126189,
          49.341594
        ]
      },
      "properties": {
        "name": "3390 Mosbach, Pfalzgraf-Otto-Str."
      },
      "id": "XohEw"
    },
    {
      "type": "Feature",
      "geometry": {
        "type": "Point",
        "coordinates": [
          6.977955,
          50.972677
        ]
      },
      "properties": {
        "name": "4220 Köln-Niehl"
      },
      "id": "xP39a"
    },
    {
      "type": "Feature",
      "geometry": {
        "type": "Point",
        "coordinates": [
          6.658536,
          51.45501
        ]
      },
      "properties": {
        "name": "4583 Moers-Hochstraß"
      },
      "id": "yBDH3"
    },
    {
      "type": "Feature",
      "geometry": {
        "type": "Point",
        "coordinates": [
          6.684939,
          51.23124
        ]
      },
      "properties": {
        "name": "4643 Neuss-Vogelsang"
      },
      "id": "PJ5XS"
    },
    {
      "type": "Feature",
      "geometry": {
        "type": "Point",
        "coordinates": [
          8.846945,
          49.887792
        ]
      },
      "properties": {
        "name": "4780 Dieburg"
      },
      "id": "Ku0Mk"
    },
    {
      "type": "Feature",
      "geometry": {
        "type": "Point",
        "coordinates": [
          10.034477,
          51.194971
        ]
      },
      "properties": {
        "name": "4800 Eschwege"
      },
      "id": "97rqq"
    },
    {
      "type": "Feature",
      "geometry": {
        "type": "Point",
        "coordinates": [
          7.223189,
          50.793302
        ]
      },
      "properties": {
        "name": "4910 Siegburg"
      },
      "id": "TLhit"
    },
    {
      "type": "Feature",
      "geometry": {
        "type": "Point",
        "coordinates": [
          8.215654,
          50.046382
        ]
      },
      "properties": {
        "name": "5093 Wiesbaden"
      },
      "id": "58faZ"
    },
    {
      "type": "Feature",
      "geometry": {
        "type": "Point",
        "coordinates": [
          7.16587,
          51.939665
        ]
      },
      "properties": {
        "name": "6110 Coesfeld"
      },
      "id": "BMjwu"
    },
    {
      "type": "Feature",
      "geometry": {
        "type": "Point",
        "coordinates": [
          8.869711,
          51.277636
        ]
      },
      "properties": {
        "name": "7440 Korbach"
      },
      "id": "BcPlG"
    },
    {
      "type": "Feature",
      "geometry": {
        "type": "Point",
        "coordinates": [
          8.28698,
          51.852978
        ]
      },
      "properties": {
        "name": "7510 Rheda-Wiedenbrück"
      },
      "id": "vvqvL"
    },
    {
      "type": "Feature",
      "geometry": {
        "type": "Point",
        "coordinates": [
          8.039535,
          51.772789
        ]
      },
      "properties": {
        "name": "7640 Beckum"
      },
      "id": "ZlZHy"
    },
    {
      "type": "Feature",
      "geometry": {
        "type": "Point",
        "coordinates": [
          7.248927,
          50.325782
        ]
      },
      "properties": {
        "name": "7990 Mayen"
      },
      "id": "rZNJh"
    },
    {
      "type": "Feature",
      "geometry": {
        "type": "Point",
        "coordinates": [
          7.531031,
          52.173948
        ]
      },
      "properties": {
        "name": "8360 Emsdetten"
      },
      "id": "Syd4F"
    },
    {
      "type": "Feature",
      "geometry": {
        "type": "Point",
        "coordinates": [
          7.206377,
          50.839013
        ]
      },
      "properties": {
        "name": "8410 Lohmar"
      },
      "id": "n4XQf"
    },
    {
      "type": "Feature",
      "geometry": {
        "type": "Point",
        "coordinates": [
          10.052195,
          54.320447
        ]
      },
      "properties": {
        "name": "1563 Kiel"
      },
      "id": "Q4Mzg"
    },
    {
      "type": "Feature",
      "geometry": {
        "type": "Point",
        "coordinates": [
          9.710965,
          52.408964
        ]
      },
      "properties": {
        "name": "1830 Hannover-Hainholz"
      },
      "id": "Q0Mzk"
    },
    {
      "type": "Feature",
      "geometry": {
        "type": "Point",
        "coordinates": [
          6.840824,
          49.243835
        ]
      },
      "properties": {
        "name": "2350 Völklingen"
      },
      "id": "E1NDg"
    },
    {
      "type": "Feature",
      "geometry": {
        "type": "Point",
        "coordinates": [
          7.552586,
          49.413249
        ]
      },
      "properties": {
        "name": "3840 Landstuhl"
      },
      "id": "Q3NDg"
    },
    {
      "type": "Feature",
      "geometry": {
        "type": "Point",
        "coordinates": [
          8.674414,
          52.125387
        ]
      },
      "properties": {
        "name": "3970 Herford"
      },
      "id": "E4NzY"
    },
    {
      "type": "Feature",
      "geometry": {
        "type": "Point",
        "coordinates": [
          6.575296,
          49.699181
        ]
      },
      "properties": {
        "name": "4140 Konz"
      },
      "id": "kzNTY"
    },
    {
      "type": "Feature",
      "geometry": {
        "type": "Point",
        "coordinates": [
          8.228636,
          49.967147
        ]
      },
      "properties": {
        "name": "4563 Mainz-Bretzenheim"
      },
      "id": "YxMTA"
    },
    {
      "type": "Feature",
      "geometry": {
        "type": "Point",
        "coordinates": [
          8.84577,
          47.753059
        ]
      },
      "properties": {
        "name": "4813 Singen (Hohentwiel)"
      },
      "id": "IwMzg"
    },
    {
      "type": "Feature",
      "geometry": {
        "type": "Point",
        "coordinates": [
          10.725043,
          52.370755
        ]
      },
      "properties": {
        "name": "4863 Wolfsburg"
      },
      "id": "E1MTY"
    },
    {
      "type": "Feature",
      "geometry": {
        "type": "Point",
        "coordinates": [
          7.307228,
          51.548307
        ]
      },
      "properties": {
        "name": "4940 Castrop-Rauxel, Widumer Tor"
      },
      "id": "YxNjA"
    },
    {
      "type": "Feature",
      "geometry": {
        "type": "Point",
        "coordinates": [
          7.571511,
          50.425362
        ]
      },
      "properties": {
        "name": "4970 Bendorf"
      },
      "id": "E2MDY"
    },
    {
      "type": "Feature",
      "geometry": {
        "type": "Point",
        "coordinates": [
          9.939001,
          52.157578
        ]
      },
      "properties": {
        "name": "5010 Hildesheim"
      },
      "id": "YwNjc"
    },
    {
      "type": "Feature",
      "geometry": {
        "coordinates": [
          8.705678,
          53.013234
        ],
        "type": "Point"
      },
      "properties": {
        "name": "5283 Stuhr"
      },
      "id": "UxNzQ"
    },
    {
      "type": "Feature",
      "geometry": {
        "type": "Point",
        "coordinates": [
          9.740034,
          52.380072
        ]
      },
      "properties": {
        "name": "6410 Hannover-Mitte"
      },
      "id": "k0Mjk"
    },
    {
      "type": "Feature",
      "geometry": {
        "type": "Point",
        "coordinates": [
          10.255002,
          52.339692
        ]
      },
      "properties": {
        "name": "7950 Peine"
      },
      "id": "U5MTE"
    },
    {
      "type": "Feature",
      "geometry": {
        "type": "Point",
        "coordinates": [
          7.159653,
          51.527753
        ]
      },
      "properties": {
        "name": "8310 Herne"
      },
      "id": "kwOTY"
    },
    {
      "type": "Feature",
      "geometry": {
        "type": "Point",
        "coordinates": [
          6.736395,
          51.456778
        ]
      },
      "properties": {
        "name": "1710 Duisburg-Ruhrort"
      },
      "id": "IzNzQ"
    },
    {
      "type": "Feature",
      "geometry": {
        "type": "Point",
        "coordinates": [
          6.96405,
          51.663452
        ]
      },
      "properties": {
        "name": "1743 Dorsten, Mercaden"
      },
      "id": "g3MTU"
    },
    {
      "type": "Feature",
      "geometry": {
        "type": "Point",
        "coordinates": [
          7.529132,
          51.615488
        ]
      },
      "properties": {
        "name": "1750 Lünen"
      },
      "id": "QyNTA"
    },
    {
      "type": "Feature",
      "geometry": {
        "type": "Point",
        "coordinates": [
          9.476164,
          53.605102
        ]
      },
      "properties": {
        "name": "3900 Stade"
      },
      "id": "EyNzQ"
    },
    {
      "type": "Feature",
      "geometry": {
        "type": "Point",
        "coordinates": [
          8.886663,
          51.95268
        ]
      },
      "properties": {
        "name": "3990 Detmold, Ernst-Hilker-Str."
      },
      "id": "k3Njg"
    },
    {
      "type": "Feature",
      "geometry": {
        "type": "Point",
        "coordinates": [
          6.095406,
          50.870599
        ]
      },
      "properties": {
        "name": "4260 Herzogenrath"
      },
      "id": "I4MTE"
    },
    {
      "type": "Feature",
      "geometry": {
        "type": "Point",
        "coordinates": [
          8.401709,
          51.900154
        ]
      },
      "properties": {
        "name": "4343 Gütersloh"
      },
      "id": "g2Nzg"
    },
    {
      "type": "Feature",
      "geometry": {
        "type": "Point",
        "coordinates": [
          7.416136,
          50.438245
        ]
      },
      "properties": {
        "name": "4840 Andernach, Einkaufswelt Andernach"
      },
      "id": "U0NDQ"
    },
    {
      "type": "Feature",
      "geometry": {
        "type": "Point",
        "coordinates": [
          6.842868,
          51.47449
        ]
      },
      "properties": {
        "name": "4930 Oberhausen-Alt-Oberhausen, Bero-Zentrum"
      },
      "id": "czMTM"
    },
    {
      "type": "Feature",
      "geometry": {
        "coordinates": [
          7.778224,
          51.458844
        ],
        "type": "Point"
      },
      "properties": {
        "name": "4943 Menden-Schwitten"
      },
      "id": "EyMjk"
    },
    {
      "type": "Feature",
      "geometry": {
        "type": "Point",
        "coordinates": [
          7.699088,
          51.376452
        ]
      },
      "properties": {
        "name": "6030 Iserlohn-Innenstadt"
      },
      "id": "U0NjA"
    },
    {
      "type": "Feature",
      "geometry": {
        "type": "Point",
        "coordinates": [
          6.791471,
          51.25048
        ]
      },
      "properties": {
        "name": "6670 Düsseldorf"
      },
      "id": "kyOTE"
    },
    {
      "type": "Feature",
      "geometry": {
        "type": "Point",
        "coordinates": [
          9.065706,
          52.26714
        ]
      },
      "properties": {
        "name": "6690 Bückeburg"
      },
      "id": "EzODU"
    },
    {
      "type": "Feature",
      "geometry": {
        "type": "Point",
        "coordinates": [
          7.293313,
          51.470066
        ]
      },
      "properties": {
        "name": "6950 Bochum-Langendreer-Alter Bahnhof"
      },
      "id": "U4OTg"
    },
    {
      "type": "Feature",
      "geometry": {
        "type": "Point",
        "coordinates": [
          10.002392,
          51.709191
        ]
      },
      "properties": {
        "name": "7280 Northeim"
      },
      "id": "UxMzM"
    },
    {
      "type": "Feature",
      "geometry": {
        "type": "Point",
        "coordinates": [
          6.862319,
          51.846907
        ]
      },
      "properties": {
        "name": "7520 Borken"
      },
      "id": "ExMzU"
    },
    {
      "type": "Feature",
      "geometry": {
        "type": "Point",
        "coordinates": [
          7.204735,
          51.500435
        ]
      },
      "properties": {
        "name": "8870 Bochum-Hofstede"
      },
      "id": "Q2NzE"
    },
    {
      "type": "Feature",
      "geometry": {
        "type": "Point",
        "coordinates": [
          11.438892,
          48.736423
        ]
      },
      "properties": {
        "name": "1323 Ingolstadt, Münchener Str."
      },
      "id": "ro89A"
    },
    {
      "type": "Feature",
      "geometry": {
        "type": "Point",
        "coordinates": [
          11.538745,
          49.749313
        ]
      },
      "properties": {
        "name": "1810 Pegnitz, Admira Center"
      },
      "id": "PXRgW"
    },
    {
      "type": "Feature",
      "geometry": {
        "type": "Point",
        "coordinates": [
          10.07803,
          48.287823
        ]
      },
      "properties": {
        "name": "2590 Vöhringen"
      },
      "id": "4gf4y"
    },
    {
      "type": "Feature",
      "geometry": {
        "type": "Point",
        "coordinates": [
          11.399024,
          48.77407
        ]
      },
      "properties": {
        "name": "3050 Ingolstadt-Nordwest"
      },
      "id": "SRcBq"
    },
    {
      "type": "Feature",
      "geometry": {
        "type": "Point",
        "coordinates": [
          10.326982,
          49.161993
        ]
      },
      "properties": {
        "name": "4240 Feuchtwangen"
      },
      "id": "YC0g6"
    },
    {
      "type": "Feature",
      "geometry": {
        "type": "Point",
        "coordinates": [
          11.597722,
          48.19479
        ]
      },
      "properties": {
        "name": "4613 München-Schwabing-Freimann, Suma Center"
      },
      "id": "Crc0t"
    },
    {
      "type": "Feature",
      "geometry": {
        "type": "Point",
        "coordinates": [
          11.066365,
          49.427273
        ]
      },
      "properties": {
        "name": "4830 Nürnberg-Gibitzenhof"
      },
      "id": "MC2LH"
    },
    {
      "type": "Feature",
      "geometry": {
        "type": "Point",
        "coordinates": [
          9.951999,
          49.799425
        ]
      },
      "properties": {
        "name": "5103 Würzburg-Grombühl"
      },
      "id": "IzFZn"
    },
    {
      "type": "Feature",
      "geometry": {
        "type": "Point",
        "coordinates": [
          12.942351,
          48.417556
        ]
      },
      "properties": {
        "name": "5323 Pfarrkirchen"
      },
      "id": "8ZKVv"
    },
    {
      "type": "Feature",
      "geometry": {
        "type": "Point",
        "coordinates": [
          12.804555,
          48.163116
        ]
      },
      "properties": {
        "name": "6850 Burghausen"
      },
      "id": "Ggswj"
    },
    {
      "type": "Feature",
      "geometry": {
        "type": "Point",
        "coordinates": [
          11.513114,
          48.539107
        ]
      },
      "properties": {
        "name": "7430 Pfaffenhofen, Joseph-Fraunhofer-Str."
      },
      "id": "2GkLj"
    },
    {
      "type": "Feature",
      "geometry": {
        "type": "Point",
        "coordinates": [
          11.135277,
          49.40121
        ]
      },
      "properties": {
        "name": "7720 Nürnberg-Langwasser"
      },
      "id": "2KS4U"
    },
    {
      "type": "Feature",
      "geometry": {
        "type": "Point",
        "coordinates": [
          11.340669,
          49.316877
        ]
      },
      "properties": {
        "name": "7750 Burgthann"
      },
      "id": "cIHml"
    },
    {
      "type": "Feature",
      "geometry": {
        "type": "Point",
        "coordinates": [
          10.984671,
          49.027503
        ]
      },
      "properties": {
        "name": "7760 Weißenburg"
      },
      "id": "mxqNX"
    },
    {
      "type": "Feature",
      "geometry": {
        "type": "Point",
        "coordinates": [
          11.116045,
          49.335218
        ]
      },
      "properties": {
        "name": "7910 Wendelstein"
      },
      "id": "cubmT"
    },
    {
      "type": "Feature",
      "geometry": {
        "type": "Point",
        "coordinates": [
          12.548726,
          48.876341
        ]
      },
      "properties": {
        "name": "1943 Straubing, Otto-von-Dandl-Ring"
      },
      "id": "DUnOc"
    },
    {
      "type": "Feature",
      "geometry": {
        "type": "Point",
        "coordinates": [
          11.001252,
          49.600152
        ]
      },
      "properties": {
        "name": "2500 Erlangen-Altstadt"
      },
      "id": "yRMez"
    },
    {
      "type": "Feature",
      "geometry": {
        "type": "Point",
        "coordinates": [
          9.723029,
          52.315504
        ]
      },
      "properties": {
        "name": "4413 Hemmingen"
      },
      "id": "8syZg"
    },
    {
      "type": "Feature",
      "geometry": {
        "type": "Point",
        "coordinates": [
          10.176564,
          49.755247
        ]
      },
      "properties": {
        "name": "4820 Kitzingen"
      },
      "id": "8VYwk"
    },
    {
      "type": "Feature",
      "geometry": {
        "type": "Point",
        "coordinates": [
          12.613496,
          48.883937
        ]
      },
      "properties": {
        "name": "4823 Straubing, Ittlinger Str."
      },
      "id": "HjK0z"
    },
    {
      "type": "Feature",
      "geometry": {
        "type": "Point",
        "coordinates": [
          8.49918,
          48.0822
        ]
      },
      "properties": {
        "name": "5073 Villingen-Schwenningen"
      },
      "id": "IBlpB"
    },
    {
      "type": "Feature",
      "geometry": {
        "type": "Point",
        "coordinates": [
          10.864116,
          49.914708
        ]
      },
      "properties": {
        "name": "5213 Hallstadt"
      },
      "id": "M7RIp"
    },
    {
      "type": "Feature",
      "geometry": {
        "type": "Point",
        "coordinates": [
          10.020642,
          53.552534
        ]
      },
      "properties": {
        "name": "5353 Hamburg-St. Georg"
      },
      "id": "e0Aqs"
    },
    {
      "type": "Feature",
      "geometry": {
        "type": "Point",
        "coordinates": [
          12.407684,
          48.206622
        ]
      },
      "properties": {
        "name": "5410 Waldkraiburg"
      },
      "id": "8igYr"
    },
    {
      "type": "Feature",
      "geometry": {
        "type": "Point",
        "coordinates": [
          10.891732,
          48.055645
        ]
      },
      "properties": {
        "name": "6450 Landsberg, Am Penzinger Feld"
      },
      "id": "ei0Z7"
    },
    {
      "type": "Feature",
      "geometry": {
        "type": "Point",
        "coordinates": [
          11.531305,
          48.529871
        ]
      },
      "properties": {
        "name": "6720 Pfaffenhofen, Max-Weinberger-Str."
      },
      "id": "RRFT7"
    },
    {
      "type": "Feature",
      "geometry": {
        "type": "Point",
        "coordinates": [
          11.036432,
          49.456413
        ]
      },
      "properties": {
        "name": "7710 Nürnberg-Eberhardshof, Admira-Center"
      },
      "id": "LUq9B"
    },
    {
      "type": "Feature",
      "geometry": {
        "type": "Point",
        "coordinates": [
          10.404434,
          53.273455
        ]
      },
      "properties": {
        "name": "7930 Lüneburg, Boecklerstr."
      },
      "id": "JGFBf"
    },
    {
      "type": "Feature",
      "geometry": {
        "type": "Point",
        "coordinates": [
          13.083762,
          52.530354
        ]
      },
      "properties": {
        "name": "3180 Dallgow-Döberitz, Havelpark"
      },
      "id": "bST5m"
    },
    {
      "type": "Feature",
      "geometry": {
        "coordinates": [
          8.376174,
          48.991373
        ],
        "type": "Point"
      },
      "properties": {
        "name": "5443 Karlsruhe-Beiertheim-Bulach"
      },
      "id": "H9fS9"
    },
    {
      "type": "Feature",
      "geometry": {
        "coordinates": [
          8.388201,
          49.489796
        ],
        "type": "Point"
      },
      "properties": {
        "name": "5453 Ludwigshafen"
      },
      "id": "XxJ7B"
    },
    {
      "type": "Feature",
      "geometry": {
        "coordinates": [
          8.243684,
          49.348486
        ],
        "type": "Point"
      },
      "properties": {
        "name": "5493 Haßloch"
      },
      "id": "G3exe"
    },
    {
      "type": "Feature",
      "geometry": {
        "type": "Point",
        "coordinates": [
          6.964758,
          52.066159
        ]
      },
      "properties": {
        "name": "1300 Ahaus"
      },
      "id": "rZAzK"
    },
    {
      "type": "Feature",
      "geometry": {
        "type": "Point",
        "coordinates": [
          7.8776,
          51.739284
        ]
      },
      "properties": {
        "name": "1310 Ahlen"
      },
      "id": "1mq8c"
    },
    {
      "type": "Feature",
      "geometry": {
        "type": "Point",
        "coordinates": [
          7.779479,
          51.692661
        ]
      },
      "properties": {
        "name": "1340 Hamm-Bockum-Hövel"
      },
      "id": "VLN1D"
    },
    {
      "type": "Feature",
      "geometry": {
        "type": "Point",
        "coordinates": [
          7.530141,
          50.983093
        ]
      },
      "properties": {
        "name": "1420 Gummersbach"
      },
      "id": "8Zp2H"
    },
    {
      "type": "Feature",
      "geometry": {
        "type": "Point",
        "coordinates": [
          7.881017,
          50.800812
        ]
      },
      "properties": {
        "name": "1500 Kirchen"
      },
      "id": "KSRHN"
    },
    {
      "type": "Feature",
      "geometry": {
        "type": "Point",
        "coordinates": [
          7.563905,
          51.450731
        ]
      },
      "properties": {
        "name": "1570 Schwerte"
      },
      "id": "KRi2d"
    },
    {
      "type": "Feature",
      "geometry": {
        "type": "Point",
        "coordinates": [
          7.917135,
          51.549124
        ]
      },
      "properties": {
        "name": "1630 Werl"
      },
      "id": "Rtb19"
    },
    {
      "type": "Feature",
      "geometry": {
        "type": "Point",
        "coordinates": [
          7.973317,
          50.554906
        ]
      },
      "properties": {
        "name": "1640 Westerburg"
      },
      "id": "Ggi3Z"
    },
    {
      "type": "Feature",
      "geometry": {
        "type": "Point",
        "coordinates": [
          7.784624,
          51.66453
        ]
      },
      "properties": {
        "name": "2013 Hamm-Mitte, Wilhelmstr."
      },
      "id": "Ew4xi"
    },
    {
      "type": "Feature",
      "geometry": {
        "type": "Point",
        "coordinates": [
          11.610757,
          50.951513
        ]
      },
      "properties": {
        "name": "3123 Jena-Löbstedt"
      },
      "id": "Jq7aM"
    },
    {
      "type": "Feature",
      "geometry": {
        "type": "Point",
        "coordinates": [
          8.235739,
          48.860773
        ]
      },
      "properties": {
        "name": "4733 Rastatt"
      },
      "id": "pPlPS"
    },
    {
      "type": "Feature",
      "geometry": {
        "type": "Point",
        "coordinates": [
          8.138123,
          49.746204
        ]
      },
      "properties": {
        "name": "5243 Alzey, Rheinhessen Center"
      },
      "id": "b77PE"
    },
    {
      "type": "Feature",
      "geometry": {
        "type": "Point",
        "coordinates": [
          8.027878,
          50.887306
        ]
      },
      "properties": {
        "name": "7240 Siegen, Hagener Str."
      },
      "id": "J8eFp"
    },
    {
      "type": "Feature",
      "geometry": {
        "type": "Point",
        "coordinates": [
          7.386096,
          51.38739
        ]
      },
      "properties": {
        "name": "8190 Wetter (Ruhr), Ruhrtal Center"
      },
      "id": "Q5hFQ"
    },
    {
      "type": "Feature",
      "geometry": {
        "type": "Point",
        "coordinates": [
          7.462217,
          51.378042
        ]
      },
      "properties": {
        "name": "8730 Hagen-Nord"
      },
      "id": "BCJUk"
    },
    {
      "type": "Feature",
      "geometry": {
        "type": "Point",
        "coordinates": [
          9.257886,
          48.775633
        ]
      },
      "properties": {
        "name": "3930 Stuttgart-Untertürkheim"
      },
      "id": "96cyX"
    },
    {
      "type": "Feature",
      "geometry": {
        "type": "Point",
        "coordinates": [
          9.523687,
          47.632978
        ]
      },
      "properties": {
        "name": "4280 Eriskirch"
      },
      "id": "P5aB4"
    },
    {
      "type": "Feature",
      "geometry": {
        "type": "Point",
        "coordinates": [
          8.366813,
          49.229702
        ]
      },
      "properties": {
        "name": "4293 Germersheim, Mainzer Str."
      },
      "id": "u8FOx"
    },
    {
      "type": "Feature",
      "geometry": {
        "type": "Point",
        "coordinates": [
          11.026068,
          49.593887
        ]
      },
      "properties": {
        "name": "4430 Erlangen, Röthelheimpark"
      },
      "id": "JanQQ"
    },
    {
      "type": "Feature",
      "geometry": {
        "type": "Point",
        "coordinates": [
          7.85295,
          50.451182
        ]
      },
      "properties": {
        "name": "4923 Heiligenroth"
      },
      "id": "lsvgs"
    },
    {
      "type": "Feature",
      "geometry": {
        "type": "Point",
        "coordinates": [
          8.645409,
          50.580229
        ]
      },
      "properties": {
        "name": "5013 Gießen"
      },
      "id": "q2ZTP"
    },
    {
      "type": "Feature",
      "geometry": {
        "type": "Point",
        "coordinates": [
          9.333884,
          49.52986
        ]
      },
      "properties": {
        "name": "5130 Buchen"
      },
      "id": "Ui1zW"
    },
    {
      "type": "Feature",
      "geometry": {
        "type": "Point",
        "coordinates": [
          9.271275,
          48.721267
        ]
      },
      "properties": {
        "name": "5153 Ostfildern"
      },
      "id": "FhyIP"
    },
    {
      "type": "Feature",
      "geometry": {
        "type": "Point",
        "coordinates": [
          9.211264,
          49.230329
        ]
      },
      "properties": {
        "name": "6710 Bad Friedrichshall"
      },
      "id": "GDgMw"
    },
    {
      "type": "Feature",
      "geometry": {
        "type": "Point",
        "coordinates": [
          9.433683,
          47.663335
        ]
      },
      "properties": {
        "name": "7420 Friedrichshafen, Stockerholzstr."
      },
      "id": "Wmhhd"
    },
    {
      "type": "Feature",
      "geometry": {
        "type": "Point",
        "coordinates": [
          9.445136,
          48.936262
        ]
      },
      "properties": {
        "name": "7490 Backnang, Industriestr."
      },
      "id": "E2HfT"
    },
    {
      "type": "Feature",
      "geometry": {
        "type": "Point",
        "coordinates": [
          9.108567,
          48.730524
        ]
      },
      "properties": {
        "name": "7560 Stuttgart-Vaihingen, SchwabenGalerie"
      },
      "id": "JVw3g"
    },
    {
      "type": "Feature",
      "geometry": {
        "type": "Point",
        "coordinates": [
          9.604298,
          47.767834
        ]
      },
      "properties": {
        "name": "7870 Ravensburg"
      },
      "id": "oPGiL"
    },
    {
      "type": "Feature",
      "geometry": {
        "type": "Point",
        "coordinates": [
          9.221724,
          48.801673
        ]
      },
      "properties": {
        "name": "7890 Stuttgart-Bad Cannstatt, Carré"
      },
      "id": "bTmtt"
    },
    {
      "type": "Feature",
      "geometry": {
        "type": "Point",
        "coordinates": [
          8.915164,
          49.137179
        ]
      },
      "properties": {
        "name": "8670 Eppingen"
      },
      "id": "BOod2"
    },
    {
      "type": "Feature",
      "geometry": {
        "type": "Point",
        "coordinates": [
          11.560761,
          48.285913
        ]
      },
      "properties": {
        "name": "1820 Unterschleißheim"
      },
      "id": "le6HD"
    },
    {
      "type": "Feature",
      "geometry": {
        "type": "Point",
        "coordinates": [
          12.112094,
          49.034179
        ]
      },
      "properties": {
        "name": "2570 Regensburg-Reinhausen, Alex-Center"
      },
      "id": "YySkJ"
    },
    {
      "type": "Feature",
      "geometry": {
        "coordinates": [
          6.665826,
          51.663985
        ],
        "type": "Point"
      },
      "properties": {
        "name": "3223 Wesel"
      },
      "id": "sUhy4"
    },
    {
      "type": "Feature",
      "geometry": {
        "type": "Point",
        "coordinates": [
          11.761417,
          48.798299
        ]
      },
      "properties": {
        "name": "3690 Neustadt a.d.Donau"
      },
      "id": "jRCKe"
    },
    {
      "type": "Feature",
      "geometry": {
        "type": "Point",
        "coordinates": [
          10.055044,
          52.606442
        ]
      },
      "properties": {
        "name": "4123 Celle"
      },
      "id": "2mCDE"
    },
    {
      "type": "Feature",
      "geometry": {
        "type": "Point",
        "coordinates": [
          11.64422,
          48.100768
        ]
      },
      "properties": {
        "name": "4370 München-Neuperlach, PEP"
      },
      "id": "STMND"
    },
    {
      "type": "Feature",
      "geometry": {
        "type": "Point",
        "coordinates": [
          12.657173,
          49.203926
        ]
      },
      "properties": {
        "name": "4550 Cham"
      },
      "id": "aLdNX"
    },
    {
      "type": "Feature",
      "geometry": {
        "type": "Point",
        "coordinates": [
          11.466717,
          48.258602
        ]
      },
      "properties": {
        "name": "4670 Dachau"
      },
      "id": "G6bi9"
    },
    {
      "type": "Feature",
      "geometry": {
        "type": "Point",
        "coordinates": [
          6.381866,
          51.767418
        ]
      },
      "properties": {
        "name": "4743 Rees"
      },
      "id": "R3D7n"
    },
    {
      "type": "Feature",
      "geometry": {
        "type": "Point",
        "coordinates": [
          10.927969,
          48.364586
        ]
      },
      "properties": {
        "name": "5173 Augsburg-Herrenbach"
      },
      "id": "aRPeM"
    },
    {
      "type": "Feature",
      "geometry": {
        "type": "Point",
        "coordinates": [
          10.41093,
          49.497939
        ]
      },
      "properties": {
        "name": "5440 Bad Windsheim"
      },
      "id": "Pscvu"
    },
    {
      "type": "Feature",
      "geometry": {
        "type": "Point",
        "coordinates": [
          11.882556,
          48.305021
        ]
      },
      "properties": {
        "name": "5780 Erding"
      },
      "id": "GdxRP"
    },
    {
      "type": "Feature",
      "geometry": {
        "type": "Point",
        "coordinates": [
          12.492984,
          48.629537
        ]
      },
      "properties": {
        "name": "6050 Dingolfing"
      },
      "id": "hsjba"
    },
    {
      "type": "Feature",
      "geometry": {
        "type": "Point",
        "coordinates": [
          12.098093,
          49.010539
        ]
      },
      "properties": {
        "name": "6310 Regensburg-Innenstadt, Arcaden"
      },
      "id": "98r3y"
    },
    {
      "type": "Feature",
      "geometry": {
        "type": "Point",
        "coordinates": [
          12.090626,
          47.848206
        ]
      },
      "properties": {
        "name": "7800 Rosenheim-Süd"
      },
      "id": "19B9M"
    },
    {
      "type": "Feature",
      "geometry": {
        "type": "Point",
        "coordinates": [
          12.637126,
          47.87196
        ]
      },
      "properties": {
        "name": "7810 Traunstein"
      },
      "id": "Wr91g"
    },
    {
      "type": "Feature",
      "geometry": {
        "type": "Point",
        "coordinates": [
          11.460103,
          47.883064
        ]
      },
      "properties": {
        "name": "7860 Geretsried"
      },
      "id": "05j5R"
    },
    {
      "type": "Feature",
      "geometry": {
        "type": "Point",
        "coordinates": [
          12.76209,
          48.397782
        ]
      },
      "properties": {
        "name": "8720 Eggenfelden"
      },
      "id": "Vlszn"
    },
    {
      "type": "Feature",
      "geometry": {
        "type": "Point",
        "coordinates": [
          7.678145,
          51.651442
        ]
      },
      "properties": {
        "name": "1330 Bergkamen-Rünthe"
      },
      "id": "SZXVS"
    },
    {
      "type": "Feature",
      "geometry": {
        "type": "Point",
        "coordinates": [
          6.327605,
          51.251387
        ]
      },
      "properties": {
        "name": "1370 Viersen-Dülken"
      },
      "id": "PVZIj"
    },
    {
      "type": "Feature",
      "geometry": {
        "type": "Point",
        "coordinates": [
          6.251864,
          51.843726
        ]
      },
      "properties": {
        "name": "1380 Emmerich am Rhein"
      },
      "id": "s90Am"
    },
    {
      "type": "Feature",
      "geometry": {
        "type": "Point",
        "coordinates": [
          7.338889,
          51.320806
        ]
      },
      "properties": {
        "name": "1390 Gevelsberg"
      },
      "id": "BWelk"
    },
    {
      "type": "Feature",
      "geometry": {
        "type": "Point",
        "coordinates": [
          11.027838,
          52.216324
        ]
      },
      "properties": {
        "name": "1450 Helmstedt"
      },
      "id": "BMtJX"
    },
    {
      "type": "Feature",
      "geometry": {
        "type": "Point",
        "coordinates": [
          7.670077,
          51.578513
        ]
      },
      "properties": {
        "name": "1490 Kamen"
      },
      "id": "BWxm4"
    },
    {
      "type": "Feature",
      "geometry": {
        "type": "Point",
        "coordinates": [
          6.168609,
          51.802604
        ]
      },
      "properties": {
        "name": "1510 Kleve, Olmerstr."
      },
      "id": "c5uye"
    },
    {
      "type": "Feature",
      "geometry": {
        "type": "Point",
        "coordinates": [
          7.758043,
          51.448665
        ]
      },
      "properties": {
        "name": "1530 Menden-Bösperde"
      },
      "id": "9V6KR"
    },
    {
      "type": "Feature",
      "geometry": {
        "type": "Point",
        "coordinates": [
          7.259731,
          51.640624
        ]
      },
      "properties": {
        "name": "1550 Oer-Erkenschwick"
      },
      "id": "JO995"
    },
    {
      "type": "Feature",
      "geometry": {
        "type": "Point",
        "coordinates": [
          8.726749,
          51.743553
        ]
      },
      "properties": {
        "name": "1560 Paderborn-Schloß Neuhaus"
      },
      "id": "4i5d2"
    },
    {
      "type": "Feature",
      "geometry": {
        "type": "Point",
        "coordinates": [
          7.136382,
          51.594439
        ]
      },
      "properties": {
        "name": "1650 Herten, Rathaus-Galerien"
      },
      "id": "tPUWk"
    },
    {
      "type": "Feature",
      "geometry": {
        "type": "Point",
        "coordinates": [
          7.12016,
          51.472095
        ]
      },
      "properties": {
        "name": "4093 Bochum-Wattenscheid, Ottostr."
      },
      "id": "x8o5d"
    },
    {
      "type": "Feature",
      "geometry": {
        "type": "Point",
        "coordinates": [
          7.799826,
          51.70227
        ]
      },
      "properties": {
        "name": "4363 Hamm-Heessen"
      },
      "id": "swiN9"
    },
    {
      "type": "Feature",
      "geometry": {
        "type": "Point",
        "coordinates": [
          6.264256,
          51.442613
        ]
      },
      "properties": {
        "name": "6700 Straelen"
      },
      "id": "7sCUb"
    },
    {
      "type": "Feature",
      "geometry": {
        "type": "Point",
        "coordinates": [
          7.007239,
          51.496838
        ]
      },
      "properties": {
        "name": "8380 Essen-Altenessen-Nord, Allee-Center"
      },
      "id": "8nSNv"
    },
    {
      "type": "Feature",
      "geometry": {
        "type": "Point",
        "coordinates": [
          6.952634,
          51.47296
        ]
      },
      "properties": {
        "name": "8620 Essen-Borbeck-Mitte"
      },
      "id": "0qaPg"
    },
    {
      "type": "Feature",
      "geometry": {
        "type": "Point",
        "coordinates": [
          8.011093,
          51.430899
        ]
      },
      "properties": {
        "name": "1350 Arnsberg-Bruchhausen"
      },
      "id": "T4OYc"
    },
    {
      "type": "Feature",
      "geometry": {
        "type": "Point",
        "coordinates": [
          7.470199,
          51.528894
        ]
      },
      "properties": {
        "name": "1800 Dortmund-Innenstadt-Nord"
      },
      "id": "NipI6"
    },
    {
      "type": "Feature",
      "geometry": {
        "type": "Point",
        "coordinates": [
          7.854366,
          52.181254
        ]
      },
      "properties": {
        "name": "1840 Lengerich"
      },
      "id": "Nb1Vq"
    },
    {
      "type": "Feature",
      "geometry": {
        "type": "Point",
        "coordinates": [
          6.319853,
          51.516187
        ]
      },
      "properties": {
        "name": "1950 Geldern"
      },
      "id": "cdQZm"
    },
    {
      "type": "Feature",
      "geometry": {
        "type": "Point",
        "coordinates": [
          8.632475,
          53.061615
        ]
      },
      "properties": {
        "name": "3620 Delmenhorst-Ströhen"
      },
      "id": "TGedg"
    },
    {
      "type": "Feature",
      "geometry": {
        "type": "Point",
        "coordinates": [
          9.235688,
          52.95272
        ]
      },
      "properties": {
        "name": "3850 Verden"
      },
      "id": "Mb19d"
    },
    {
      "type": "Feature",
      "geometry": {
        "type": "Point",
        "coordinates": [
          8.60105,
          53.491256
        ]
      },
      "properties": {
        "name": "4520 Bremerhaven-Fischereihafen"
      },
      "id": "i8SxL"
    },
    {
      "type": "Feature",
      "geometry": {
        "type": "Point",
        "coordinates": [
          9.79451,
          52.318635
        ]
      },
      "properties": {
        "name": "4740 Laatzen"
      },
      "id": "1C4mD"
    },
    {
      "type": "Feature",
      "geometry": {
        "type": "Point",
        "coordinates": [
          9.614872,
          52.864648
        ]
      },
      "properties": {
        "name": "5740 Walsrode"
      },
      "id": "PyX2J"
    },
    {
      "type": "Feature",
      "geometry": {
        "type": "Point",
        "coordinates": [
          7.383027,
          53.084865
        ]
      },
      "properties": {
        "name": "6380 Papenburg, Dever Park"
      },
      "id": "tq74t"
    },
    {
      "type": "Feature",
      "geometry": {
        "type": "Point",
        "coordinates": [
          8.804973,
          49.975141
        ]
      },
      "properties": {
        "name": "6470 Rödermark"
      },
      "id": "bHIcw"
    },
    {
      "type": "Feature",
      "geometry": {
        "type": "Point",
        "coordinates": [
          10.329477,
          52.151565
        ]
      },
      "properties": {
        "name": "6970 Salzgitter, BraWo Carree"
      },
      "id": "Tp2Vn"
    },
    {
      "type": "Feature",
      "geometry": {
        "type": "Point",
        "coordinates": [
          7.202407,
          51.176777
        ]
      },
      "properties": {
        "name": "7200 Remscheid, Brücken-Center"
      },
      "id": "JS2th"
    },
    {
      "type": "Feature",
      "geometry": {
        "type": "Point",
        "coordinates": [
          7.075378,
          52.423095
        ]
      },
      "properties": {
        "name": "7250 Nordhorn, Bentheimer Str."
      },
      "id": "2g1hr"
    },
    {
      "type": "Feature",
      "geometry": {
        "type": "Point",
        "coordinates": [
          7.066124,
          52.438367
        ]
      },
      "properties": {
        "name": "7253 Nordhorn, Stadtring, Ring-Center"
      },
      "id": "wWk8U"
    },
    {
      "type": "Feature",
      "geometry": {
        "type": "Point",
        "coordinates": [
          6.765851,
          51.497179
        ]
      },
      "properties": {
        "name": "7270 Duisburg-Alt-Hamborn"
      },
      "id": "DfkF2"
    },
    {
      "type": "Feature",
      "geometry": {
        "type": "Point",
        "coordinates": [
          9.468327,
          52.305084
        ]
      },
      "properties": {
        "name": "8830 Barsinghausen"
      },
      "id": "hAsPE"
    },
    {
      "type": "Feature",
      "geometry": {
        "type": "Point",
        "coordinates": [
          12.69239,
          48.684327
        ]
      },
      "properties": {
        "name": "1463 Landau a.d.Isar"
      },
      "id": "NWJYI"
    },
    {
      "type": "Feature",
      "geometry": {
        "type": "Point",
        "coordinates": [
          9.148532,
          47.677033
        ]
      },
      "properties": {
        "name": "1680 Konstanz-Industriegebiet"
      },
      "id": "tq7Ow"
    },
    {
      "type": "Feature",
      "geometry": {
        "type": "Point",
        "coordinates": [
          8.438541,
          49.333422
        ]
      },
      "properties": {
        "name": "2130 Speyer"
      },
      "id": "O0Itr"
    },
    {
      "type": "Feature",
      "geometry": {
        "type": "Point",
        "coordinates": [
          9.819814,
          49.486583
        ]
      },
      "properties": {
        "name": "2270 Igersheim"
      },
      "id": "7zMvN"
    },
    {
      "type": "Feature",
      "geometry": {
        "type": "Point",
        "coordinates": [
          8.361851,
          49.846389
        ]
      },
      "properties": {
        "name": "2523 Oppenheim"
      },
      "id": "UqFjH"
    },
    {
      "type": "Feature",
      "geometry": {
        "type": "Point",
        "coordinates": [
          9.509246,
          49.767088
        ]
      },
      "properties": {
        "name": "2660 Wertheim"
      },
      "id": "kxThT"
    },
    {
      "type": "Feature",
      "geometry": {
        "type": "Point",
        "coordinates": [
          8.599382,
          53.571578
        ]
      },
      "properties": {
        "name": "4113 Bremerhaven-Lehe"
      },
      "id": "Ke844"
    },
    {
      "type": "Feature",
      "geometry": {
        "type": "Point",
        "coordinates": [
          8.228111,
          53.182771
        ]
      },
      "properties": {
        "name": "4673 Oldenburg"
      },
      "id": "QdTps"
    },
    {
      "type": "Feature",
      "geometry": {
        "type": "Point",
        "coordinates": [
          8.35963,
          49.656197
        ]
      },
      "properties": {
        "name": "4810 Worms, Mainzer Str."
      },
      "id": "Z9oIn"
    },
    {
      "type": "Feature",
      "geometry": {
        "type": "Point",
        "coordinates": [
          7.837458,
          48.548895
        ]
      },
      "properties": {
        "name": "5210 Kehl"
      },
      "id": "s73Tl"
    },
    {
      "type": "Feature",
      "geometry": {
        "type": "Point",
        "coordinates": [
          8.359276,
          49.625436
        ]
      },
      "properties": {
        "name": "6160 Worms, Schönauer Str."
      },
      "id": "xsxaF"
    },
    {
      "type": "Feature",
      "geometry": {
        "type": "Point",
        "coordinates": [
          8.664833,
          49.454156
        ]
      },
      "properties": {
        "name": "7690 Dossenheim"
      },
      "id": "wJ1id"
    },
    {
      "type": "Feature",
      "geometry": {
        "type": "Point",
        "coordinates": [
          9.261013,
          49.058141
        ]
      },
      "properties": {
        "name": "8950 Ilsfeld"
      },
      "id": "na1vF"
    },
    {
      "type": "Feature",
      "geometry": {
        "type": "Point",
        "coordinates": [
          12.076641,
          50.00949
        ]
      },
      "properties": {
        "name": "1993 Marktredwitz, Bayreuther Str. 15"
      },
      "id": "dEgbl"
    },
    {
      "type": "Feature",
      "geometry": {
        "type": "Point",
        "coordinates": [
          10.083271,
          49.14039
        ]
      },
      "properties": {
        "name": "2170 Crailsheim, Schönebürgstr."
      },
      "id": "n0rq2"
    },
    {
      "type": "Feature",
      "geometry": {
        "type": "Point",
        "coordinates": [
          10.480147,
          48.857586
        ]
      },
      "properties": {
        "name": "2460 Nördlingen, EGM"
      },
      "id": "FZDvW"
    },
    {
      "type": "Feature",
      "geometry": {
        "type": "Point",
        "coordinates": [
          10.877516,
          48.347797
        ]
      },
      "properties": {
        "name": "3380 Augsburg-Göggingen"
      },
      "id": "9HCvr"
    },
    {
      "type": "Feature",
      "geometry": {
        "type": "Point",
        "coordinates": [
          9.702607,
          49.104767
        ]
      },
      "properties": {
        "name": "4030 Schwäbisch Hall, Steinbeisweg"
      },
      "id": "gTOOr"
    },
    {
      "type": "Feature",
      "geometry": {
        "type": "Point",
        "coordinates": [
          6.610637,
          51.831007
        ]
      },
      "properties": {
        "name": "4083 Bocholt"
      },
      "id": "SrO84"
    },
    {
      "type": "Feature",
      "geometry": {
        "type": "Point",
        "coordinates": [
          7.797922,
          47.986676
        ]
      },
      "properties": {
        "name": "4253 Freiburg-Haslach, Breisgau-Center"
      },
      "id": "OOPor"
    },
    {
      "type": "Feature",
      "geometry": {
        "type": "Point",
        "coordinates": [
          7.841063,
          48.345058
        ]
      },
      "properties": {
        "name": "4513 Lahr/Schwarzwald"
      },
      "id": "OVvqg"
    },
    {
      "type": "Feature",
      "geometry": {
        "type": "Point",
        "coordinates": [
          12.969323,
          47.844022
        ]
      },
      "properties": {
        "name": "4570 Freilassing"
      },
      "id": "1aDqx"
    },
    {
      "type": "Feature",
      "geometry": {
        "type": "Point",
        "coordinates": [
          9.876918,
          48.22899
        ]
      },
      "properties": {
        "name": "5260 Laupheim"
      },
      "id": "Ulxzt"
    },
    {
      "type": "Feature",
      "geometry": {
        "type": "Point",
        "coordinates": [
          11.562767,
          47.753791
        ]
      },
      "properties": {
        "name": "5430 Bad Tölz"
      },
      "id": "ZHBVR"
    },
    {
      "type": "Feature",
      "geometry": {
        "type": "Point",
        "coordinates": [
          10.634921,
          47.883701
        ]
      },
      "properties": {
        "name": "5510 Kaufbeuren"
      },
      "id": "u5OyJ"
    },
    {
      "type": "Feature",
      "geometry": {
        "type": "Point",
        "coordinates": [
          10.367414,
          48.24361
        ]
      },
      "properties": {
        "name": "5520 Krumbach"
      },
      "id": "jexM2"
    },
    {
      "type": "Feature",
      "geometry": {
        "type": "Point",
        "coordinates": [
          10.920383,
          49.87915
        ]
      },
      "properties": {
        "name": "5770 Bamberg"
      },
      "id": "qm6LW"
    },
    {
      "type": "Feature",
      "geometry": {
        "type": "Point",
        "coordinates": [
          12.100362,
          48.540502
        ]
      },
      "properties": {
        "name": "7660 Landshut"
      },
      "id": "bHam8"
    },
    {
      "type": "Feature",
      "geometry": {
        "type": "Point",
        "coordinates": [
          8.432291,
          48.464751
        ]
      },
      "properties": {
        "name": "2360 Freudenstadt"
      },
      "id": "oAZdg"
    },
    {
      "type": "Feature",
      "geometry": {
        "type": "Point",
        "coordinates": [
          7.809981,
          48.260331
        ]
      },
      "properties": {
        "name": "2380 Ettenheim"
      },
      "id": "kFJvY"
    },
    {
      "type": "Feature",
      "geometry": {
        "type": "Point",
        "coordinates": [
          9.065191,
          49.137656
        ]
      },
      "properties": {
        "name": "2440 Schwaigern"
      },
      "id": "18Irm"
    },
    {
      "type": "Feature",
      "geometry": {
        "type": "Point",
        "coordinates": [
          9.500738,
          49.201995
        ]
      },
      "properties": {
        "name": "4050 Öhringen"
      },
      "id": "BfPPq"
    },
    {
      "type": "Feature",
      "geometry": {
        "type": "Point",
        "coordinates": [
          7.847929,
          48.117531
        ]
      },
      "properties": {
        "name": "4080 Emmendingen"
      },
      "id": "IU2Gw"
    },
    {
      "type": "Feature",
      "geometry": {
        "type": "Point",
        "coordinates": [
          12.162246,
          48.552765
        ]
      },
      "properties": {
        "name": "4213 Ergolding"
      },
      "id": "Z8v7a"
    },
    {
      "type": "Feature",
      "geometry": {
        "type": "Point",
        "coordinates": [
          11.052563,
          49.323748
        ]
      },
      "properties": {
        "name": "4793 Schwabach"
      },
      "id": "NiXlB"
    },
    {
      "type": "Feature",
      "geometry": {
        "type": "Point",
        "coordinates": [
          9.018552,
          48.20966
        ]
      },
      "properties": {
        "name": "5090 Albstadt, Kientenstr."
      },
      "id": "QZmTX"
    },
    {
      "type": "Feature",
      "geometry": {
        "type": "Point",
        "coordinates": [
          9.133474,
          48.947942
        ]
      },
      "properties": {
        "name": "5110 Bietigheim-Bissingen, Prinz-Eugen-Str."
      },
      "id": "1Wp8i"
    },
    {
      "type": "Feature",
      "geometry": {
        "type": "Point",
        "coordinates": [
          8.860795,
          48.595177
        ]
      },
      "properties": {
        "name": "5200 Herrenberg"
      },
      "id": "93E98"
    },
    {
      "type": "Feature",
      "geometry": {
        "type": "Point",
        "coordinates": [
          10.119631,
          48.491724
        ]
      },
      "properties": {
        "name": "5250 Langenau"
      },
      "id": "zsGEn"
    },
    {
      "type": "Feature",
      "geometry": {
        "type": "Point",
        "coordinates": [
          8.63946,
          48.149023
        ]
      },
      "properties": {
        "name": "5290 Rottweil"
      },
      "id": "E8xlZ"
    },
    {
      "type": "Feature",
      "geometry": {
        "type": "Point",
        "coordinates": [
          9.792659,
          49.109325
        ]
      },
      "properties": {
        "name": "5300 Schwäbisch Hall, Raiffeisenstr."
      },
      "id": "wPoA7"
    },
    {
      "type": "Feature",
      "geometry": {
        "type": "Point",
        "coordinates": [
          8.749559,
          48.068548
        ]
      },
      "properties": {
        "name": "5330 Spaichingen"
      },
      "id": "Ib5Ga"
    },
    {
      "type": "Feature",
      "geometry": {
        "type": "Point",
        "coordinates": [
          8.826887,
          47.973411
        ]
      },
      "properties": {
        "name": "5340 Tuttlingen"
      },
      "id": "5Tmiq"
    },
    {
      "type": "Feature",
      "geometry": {
        "type": "Point",
        "coordinates": [
          9.563137,
          48.713937
        ]
      },
      "properties": {
        "name": "5350 Uhingen"
      },
      "id": "t3azn"
    },
    {
      "type": "Feature",
      "geometry": {
        "type": "Point",
        "coordinates": [
          8.381506,
          48.231973
        ]
      },
      "properties": {
        "name": "6600 Schramberg"
      },
      "id": "yM9JB"
    },
    {
      "type": "Feature",
      "geometry": {
        "type": "Point",
        "coordinates": [
          8.5772,
          49.385802
        ]
      },
      "properties": {
        "name": "8160 Schwetzingen"
      },
      "id": "TiypI"
    },
    {
      "type": "Feature",
      "geometry": {
        "type": "Point",
        "coordinates": [
          10.094982,
          48.833636
        ]
      },
      "properties": {
        "name": "2140 Aalen"
      },
      "id": "oF9qA"
    },
    {
      "type": "Feature",
      "geometry": {
        "type": "Point",
        "coordinates": [
          9.541792,
          48.807068
        ]
      },
      "properties": {
        "name": "2160 Schorndorf"
      },
      "id": "UGt8b"
    },
    {
      "type": "Feature",
      "geometry": {
        "type": "Point",
        "coordinates": [
          11.74373,
          49.496957
        ]
      },
      "properties": {
        "name": "2400 Sulzbach-Rosenberg"
      },
      "id": "6oMCe"
    },
    {
      "type": "Feature",
      "geometry": {
        "type": "Point",
        "coordinates": [
          9.131055,
          48.960881
        ]
      },
      "properties": {
        "name": "3730 Bietigheim-Bissingen, Talstr."
      },
      "id": "NTTyz"
    },
    {
      "type": "Feature",
      "geometry": {
        "type": "Point",
        "coordinates": [
          11.77765,
          48.383372
        ]
      },
      "properties": {
        "name": "4160 Freising-Attaching, FMZ Freising"
      },
      "id": "8Bhj1"
    },
    {
      "type": "Feature",
      "geometry": {
        "type": "Point",
        "coordinates": [
          9.209837,
          48.888808
        ]
      },
      "properties": {
        "name": "4250 Ludwigsburg, Friedrichstr."
      },
      "id": "MWwJA"
    },
    {
      "type": "Feature",
      "geometry": {
        "type": "Point",
        "coordinates": [
          9.518366,
          51.321078
        ]
      },
      "properties": {
        "name": "4453 Kassel-Wesertor"
      },
      "id": "OktMj"
    },
    {
      "type": "Feature",
      "geometry": {
        "type": "Point",
        "coordinates": [
          6.46083,
          51.208134
        ]
      },
      "properties": {
        "name": "4603 Mönchengladbach-Eicken"
      },
      "id": "Y8mbE"
    },
    {
      "type": "Feature",
      "geometry": {
        "type": "Point",
        "coordinates": [
          9.641469,
          47.806961
        ]
      },
      "properties": {
        "name": "4630 Weingarten"
      },
      "id": "brHsN"
    },
    {
      "type": "Feature",
      "geometry": {
        "type": "Point",
        "coordinates": [
          11.150061,
          47.843363
        ]
      },
      "properties": {
        "name": "5163 Weilheim i.OB"
      },
      "id": "v04Of"
    },
    {
      "type": "Feature",
      "geometry": {
        "type": "Point",
        "coordinates": [
          11.73107,
          48.387701
        ]
      },
      "properties": {
        "name": "5343 Freising"
      },
      "id": "oL245"
    },
    {
      "type": "Feature",
      "geometry": {
        "type": "Point",
        "coordinates": [
          11.061822,
          47.793643
        ]
      },
      "properties": {
        "name": "5380 Peißenberg"
      },
      "id": "012uT"
    },
    {
      "type": "Feature",
      "geometry": {
        "type": "Point",
        "coordinates": [
          10.190313,
          49.377934
        ]
      },
      "properties": {
        "name": "5390 Rothenburg ob der Tauber"
      },
      "id": "ewMhs"
    },
    {
      "type": "Feature",
      "geometry": {
        "type": "Point",
        "coordinates": [
          10.637201,
          49.581217
        ]
      },
      "properties": {
        "name": "5420 Neustadt an der Aisch"
      },
      "id": "5LFLo"
    },
    {
      "type": "Feature",
      "geometry": {
        "type": "Point",
        "coordinates": [
          10.752193,
          49.121944
        ]
      },
      "properties": {
        "name": "5500 Gunzenhausen"
      },
      "id": "VA6Gx"
    },
    {
      "type": "Feature",
      "geometry": {
        "type": "Point",
        "coordinates": [
          10.966952,
          49.435922
        ]
      },
      "properties": {
        "name": "6320 Oberasbach"
      },
      "id": "dn4X8"
    },
    {
      "type": "Feature",
      "geometry": {
        "type": "Point",
        "coordinates": [
          9.64635,
          48.704365
        ]
      },
      "properties": {
        "name": "8440 Göppingen"
      },
      "id": "vVu1V"
    },
    {
      "type": "Feature",
      "geometry": {
        "type": "Point",
        "coordinates": [
          9.840054,
          48.804507
        ]
      },
      "properties": {
        "name": "8450 Schwäbisch Gmünd, Hauptstr."
      },
      "id": "5xYUe"
    },
    {
      "type": "Feature",
      "geometry": {
        "type": "Point",
        "coordinates": [
          10.410694,
          53.258696
        ]
      },
      "properties": {
        "name": "7530 Lüneburg, Am Alten Eisenwerk"
      },
      "id": "MixFr"
    },
    {
      "type": "Feature",
      "geometry": {
        "type": "Point",
        "coordinates": [
          8.587317,
          50.09941
        ]
      },
      "properties": {
        "name": "1483 Frankfurt am Main-Griesheim"
      },
      "id": "8PQPY"
    },
    {
      "type": "Feature",
      "geometry": {
        "type": "Point",
        "coordinates": [
          8.73993,
          51.715643
        ]
      },
      "properties": {
        "name": "1663 Paderborn-Kernstadt, Riemekestr."
      },
      "id": "tWUxa"
    },
    {
      "type": "Feature",
      "geometry": {
        "type": "Point",
        "coordinates": [
          8.485882,
          51.987176
        ]
      },
      "properties": {
        "name": "4053 Bielefeld-Brackwede"
      },
      "id": "6hMU5"
    },
    {
      "type": "Feature",
      "geometry": {
        "type": "Point",
        "coordinates": [
          8.563628,
          52.007469
        ]
      },
      "properties": {
        "name": "4063 Bielefeld-Sieker"
      },
      "id": "6ssdn"
    },
    {
      "type": "Feature",
      "geometry": {
        "type": "Point",
        "coordinates": [
          10.588862,
          49.306067
        ]
      },
      "properties": {
        "name": "4090 Ansbach"
      },
      "id": "rchxk"
    },
    {
      "type": "Feature",
      "geometry": {
        "type": "Point",
        "coordinates": [
          7.007169,
          50.925727
        ]
      },
      "properties": {
        "name": "4933 Köln-Humboldt/Gremberg"
      },
      "id": "I5Re0"
    },
    {
      "type": "Feature",
      "geometry": {
        "type": "Point",
        "coordinates": [
          10.876728,
          48.401033
        ]
      },
      "properties": {
        "name": "6010 Augsburg-Oberhausen"
      },
      "id": "R0Udi"
    },
    {
      "type": "Feature",
      "geometry": {
        "type": "Point",
        "coordinates": [
          10.310921,
          53.933568
        ]
      },
      "properties": {
        "name": "6550 Bad Segeberg"
      },
      "id": "iPGIw"
    },
    {
      "type": "Feature",
      "geometry": {
        "type": "Point",
        "coordinates": [
          6.693555,
          50.879772
        ]
      },
      "properties": {
        "name": "6560 Kerpen"
      },
      "id": "SwQeA"
    },
    {
      "type": "Feature",
      "geometry": {
        "type": "Point",
        "coordinates": [
          9.001236,
          49.67621
        ]
      },
      "properties": {
        "name": "6570 Michelstadt"
      },
      "id": "gTnUO"
    },
    {
      "type": "Feature",
      "geometry": {
        "type": "Point",
        "coordinates": [
          10.01649,
          53.650206
        ]
      },
      "properties": {
        "name": "6680 Hamburg-Nord, Krohnstieg"
      },
      "id": "pJ6YG"
    },
    {
      "type": "Feature",
      "geometry": {
        "type": "Point",
        "coordinates": [
          10.078014,
          53.612428
        ]
      },
      "properties": {
        "name": "7000 Hamburg-Bramfeld"
      },
      "id": "xTJ3s"
    },
    {
      "type": "Feature",
      "geometry": {
        "type": "Point",
        "coordinates": [
          7.123266,
          50.98284
        ]
      },
      "properties": {
        "name": "7230 Bergisch Gladbach"
      },
      "id": "2f49V"
    },
    {
      "type": "Feature",
      "geometry": {
        "type": "Point",
        "coordinates": [
          8.106928,
          53.535385
        ]
      },
      "properties": {
        "name": "8280 Wilhelmshaven"
      },
      "id": "culaY"
    },
    {
      "type": "Feature",
      "geometry": {
        "type": "Point",
        "coordinates": [
          7.182607,
          51.397603
        ]
      },
      "properties": {
        "name": "8640 Hattingen"
      },
      "id": "j66Vr"
    },
    {
      "type": "Feature",
      "geometry": {
        "type": "Point",
        "coordinates": [
          11.458644,
          49.290982
        ]
      },
      "properties": {
        "name": "2420 Neumarkt i.d.OPf."
      },
      "id": "QjokL"
    },
    {
      "type": "Feature",
      "geometry": {
        "type": "Point",
        "coordinates": [
          7.583994,
          51.364007
        ]
      },
      "properties": {
        "name": "1480 Hagen-Hohenlimburg"
      },
      "id": "to0bh"
    },
    {
      "type": "Feature",
      "geometry": {
        "type": "Point",
        "coordinates": [
          10.99004,
          50.279618
        ]
      },
      "properties": {
        "name": "4143 Dörfles-Esbach"
      },
      "id": "af7TV"
    },
    {
      "type": "Feature",
      "geometry": {
        "type": "Point",
        "coordinates": [
          9.14416,
          48.526375
        ]
      },
      "properties": {
        "name": "4463 Kirchentellinsfurt"
      },
      "id": "ce2Bo"
    },
    {
      "type": "Feature",
      "geometry": {
        "type": "Point",
        "coordinates": [
          11.456342,
          50.111645
        ]
      },
      "properties": {
        "name": "4503 Kulmbach"
      },
      "id": "oucFH"
    },
    {
      "type": "Feature",
      "geometry": {
        "type": "Point",
        "coordinates": [
          8.125141,
          49.201743
        ]
      },
      "properties": {
        "name": "4523 Landau in der Pfalz"
      },
      "id": "WXDAs"
    },
    {
      "type": "Feature",
      "geometry": {
        "type": "Point",
        "coordinates": [
          9.165038,
          49.968154
        ]
      },
      "properties": {
        "name": "4770 Aschaffenburg"
      },
      "id": "9wjOE"
    },
    {
      "type": "Feature",
      "geometry": {
        "type": "Point",
        "coordinates": [
          11.917098,
          50.307549
        ]
      },
      "properties": {
        "name": "4960 Hof, Hans-Böckler-Str."
      },
      "id": "uFxVt"
    },
    {
      "type": "Feature",
      "geometry": {
        "type": "Point",
        "coordinates": [
          7.3392,
          49.330719
        ]
      },
      "properties": {
        "name": "5023 Homburg"
      },
      "id": "zbRd8"
    },
    {
      "type": "Feature",
      "geometry": {
        "type": "Point",
        "coordinates": [
          7.035477,
          49.227856
        ]
      },
      "properties": {
        "name": "5043 Saarbrücken, Saarbasar"
      },
      "id": "bRJ9p"
    },
    {
      "type": "Feature",
      "geometry": {
        "type": "Point",
        "coordinates": [
          8.911859,
          50.131803
        ]
      },
      "properties": {
        "name": "6000 Hanau"
      },
      "id": "e3WCu"
    },
    {
      "type": "Feature",
      "geometry": {
        "type": "Point",
        "coordinates": [
          12.216727,
          51.816163
        ]
      },
      "properties": {
        "name": "1360 Dessau-Roßlau, Zunftstr."
      },
      "id": "O0NJ8"
    },
    {
      "type": "Feature",
      "geometry": {
        "type": "Point",
        "coordinates": [
          6.928865,
          51.52258
        ]
      },
      "properties": {
        "name": "1403 Bottrop"
      },
      "id": "U1MjE"
    },
    {
      "type": "Feature",
      "geometry": {
        "type": "Point",
        "coordinates": [
          13.261099,
          51.695504
        ]
      },
      "properties": {
        "name": "1473 Herzberg (Elster)"
      },
      "id": "ESLkB"
    },
    {
      "type": "Feature",
      "geometry": {
        "type": "Point",
        "coordinates": [
          7.556083,
          51.491067
        ]
      },
      "properties": {
        "name": "1503 Dortmund-Aplerbeck"
      },
      "id": "U3NzE"
    },
    {
      "type": "Feature",
      "geometry": {
        "type": "Point",
        "coordinates": [
          12.784352,
          52.158977
        ]
      },
      "properties": {
        "name": "1520 Linthe"
      },
      "id": "jq9MA"
    },
    {
      "type": "Feature",
      "geometry": {
        "type": "Point",
        "coordinates": [
          12.487898,
          51.380972
        ]
      },
      "properties": {
        "name": "1620 Taucha"
      },
      "id": "mG0oV"
    },
    {
      "type": "Feature",
      "geometry": {
        "type": "Point",
        "coordinates": [
          11.835591,
          52.599933
        ]
      },
      "properties": {
        "name": "1660 Stendal"
      },
      "id": "aYBP8"
    },
    {
      "type": "Feature",
      "geometry": {
        "type": "Point",
        "coordinates": [
          12.086141,
          51.966174
        ]
      },
      "properties": {
        "name": "1740 Zerbst"
      },
      "id": "zGhWg"
    },
    {
      "type": "Feature",
      "geometry": {
        "type": "Point",
        "coordinates": [
          7.503308,
          51.184501
        ]
      },
      "properties": {
        "name": "1913 Halver"
      },
      "id": "po7m4"
    },
    {
      "type": "Feature",
      "geometry": {
        "type": "Point",
        "coordinates": [
          11.813693,
          50.588523
        ]
      },
      "properties": {
        "name": "2083 Schleiz, Admira Center"
      },
      "id": "n6xTc"
    },
    {
      "type": "Feature",
      "geometry": {
        "type": "Point",
        "coordinates": [
          12.676565,
          51.465772
        ]
      },
      "properties": {
        "name": "2733 Eilenburg"
      },
      "id": "rkPbv"
    },
    {
      "type": "Feature",
      "geometry": {
        "type": "Point",
        "coordinates": [
          12.738755,
          51.381069
        ]
      },
      "properties": {
        "name": "3240 Wurzen"
      },
      "id": "ceFca"
    },
    {
      "type": "Feature",
      "geometry": {
        "type": "Point",
        "coordinates": [
          11.607914,
          50.88426
        ]
      },
      "properties": {
        "name": "3500 Jena-Lobeda"
      },
      "id": "bZbd8"
    },
    {
      "type": "Feature",
      "geometry": {
        "coordinates": [
          6.992776,
          51.329137
        ],
        "type": "Point"
      },
      "properties": {
        "name": "5533 Heiligenhaus"
      },
      "id": "6hoKG"
    },
    {
      "type": "Feature",
      "geometry": {
        "type": "Point",
        "coordinates": [
          9.850327,
          51.819565
        ]
      },
      "properties": {
        "name": "1583 Einbeck"
      },
      "id": "YxODM"
    },
    {
      "type": "Feature",
      "geometry": {
        "type": "Point",
        "coordinates": [
          6.15266,
          50.808257
        ]
      },
      "properties": {
        "name": "1653 Würselen"
      },
      "id": "gxNTg"
    },
    {
      "type": "Feature",
      "geometry": {
        "type": "Point",
        "coordinates": [
          8.702121,
          50.639616
        ]
      },
      "properties": {
        "name": "2033 Lollar"
      },
      "id": "I2MTQ"
    },
    {
      "type": "Feature",
      "geometry": {
        "type": "Point",
        "coordinates": [
          11.753762,
          51.780055
        ]
      },
      "properties": {
        "name": "4120 Bernburg"
      },
      "id": "I2Mjk"
    },
    {
      "type": "Feature",
      "geometry": {
        "type": "Point",
        "coordinates": [
          8.856778,
          51.95263
        ]
      },
      "properties": {
        "name": "4133 Detmold, Klingenbergstr."
      },
      "id": "UxMzM"
    },
    {
      "type": "Feature",
      "geometry": {
        "coordinates": [
          7.369729,
          51.446756
        ],
        "type": "Point"
      },
      "properties": {
        "name": "4953 Witten-Annen"
      },
      "id": "I1NDg"
    },
    {
      "type": "Feature",
      "geometry": {
        "type": "Point",
        "coordinates": [
          6.864594,
          51.358909
        ]
      },
      "properties": {
        "name": "5183 Ratingen"
      },
      "id": "AwNDc"
    },
    {
      "type": "Feature",
      "geometry": {
        "coordinates": [
          7.020757,
          51.278602
        ],
        "type": "Point"
      },
      "properties": {
        "name": "5413 Wülfrath"
      },
      "id": "AzMzM"
    },
    {
      "type": "Feature",
      "geometry": {
        "type": "Point",
        "coordinates": [
          7.023321,
          51.153166
        ]
      },
      "properties": {
        "name": "6890 Solingen-Aufderhöhe"
      },
      "id": "Y0MDg"
    },
    {
      "type": "Feature",
      "geometry": {
        "type": "Point",
        "coordinates": [
          6.221014,
          51.055669
        ]
      },
      "properties": {
        "name": "7940 Hückelhoven"
      },
      "id": "IyNzU"
    },
    {
      "type": "Feature",
      "geometry": {
        "type": "Point",
        "coordinates": [
          7.258535,
          50.547424
        ]
      },
      "properties": {
        "name": "8130 Sinzig"
      },
      "id": "U3NzA"
    },
    {
      "type": "Feature",
      "geometry": {
        "type": "Point",
        "coordinates": [
          7.04075,
          51.180829
        ]
      },
      "properties": {
        "name": "8200 Solingen-Wald"
      },
      "id": "QwODY"
    },
    {
      "type": "Feature",
      "geometry": {
        "type": "Point",
        "coordinates": [
          8.671142,
          50.537579
        ]
      },
      "properties": {
        "name": "8210 Linden (b. Gießen), Kuhn-Center"
      },
      "id": "Y5NTQ"
    },
    {
      "type": "Feature",
      "geometry": {
        "type": "Point",
        "coordinates": [
          6.257138,
          50.577749
        ]
      },
      "properties": {
        "name": "8710 Monschau"
      },
      "id": "Y3OTc"
    },
    {
      "type": "Feature",
      "geometry": {
        "type": "Point",
        "coordinates": [
          13.781201,
          51.044524
        ]
      },
      "properties": {
        "_umap_options": {
          "showLabel": null
        },
        "name": "3940 Dresden-Striesen-West"
      },
      "id": "M5NDI"
    },
    {
      "type": "Feature",
      "geometry": {
        "type": "Point",
        "coordinates": [
          6.109949,
          51.069394
        ]
      },
      "properties": {
        "name": "4393 Heinsberg"
      },
      "id": "c3NTA"
    },
    {
      "type": "Feature",
      "geometry": {
        "type": "Point",
        "coordinates": [
          8.768281,
          51.702932
        ]
      },
      "properties": {
        "name": "4703 Paderborn-Kernstadt, Südring-Center"
      },
      "id": "A2MzE"
    },
    {
      "type": "Feature",
      "geometry": {
        "type": "Point",
        "coordinates": [
          8.056122,
          50.397285
        ]
      },
      "properties": {
        "name": "4720 Limburg"
      },
      "id": "A2MDk"
    },
    {
      "type": "Feature",
      "geometry": {
        "type": "Point",
        "coordinates": [
          7.328948,
          51.439132
        ]
      },
      "properties": {
        "name": "5630 Witten-Mitte"
      },
      "id": "kzNTc"
    },
    {
      "type": "Feature",
      "geometry": {
        "type": "Point",
        "coordinates": [
          6.756104,
          51.440433
        ]
      },
      "properties": {
        "name": "6190 Duisburg-Kaßlerfeld"
      },
      "id": "IyMzg"
    },
    {
      "type": "Feature",
      "geometry": {
        "type": "Point",
        "coordinates": [
          6.157923,
          50.871716
        ]
      },
      "properties": {
        "name": "6210 Alsdorf"
      },
      "id": "A4Nzc"
    },
    {
      "type": "Feature",
      "geometry": {
        "type": "Point",
        "coordinates": [
          9.932628,
          53.562983
        ]
      },
      "properties": {
        "name": "6330 Hamburg-Bahrenfeld"
      },
      "id": "IzMzE"
    },
    {
      "type": "Feature",
      "geometry": {
        "type": "Point",
        "coordinates": [
          7.015119,
          50.958944
        ]
      },
      "properties": {
        "name": "6540 Köln-Mülheim"
      },
      "id": "UzNjI"
    },
    {
      "type": "Feature",
      "geometry": {
        "type": "Point",
        "coordinates": [
          9.852043,
          53.470487
        ]
      },
      "properties": {
        "name": "6580 Hamburg-Neugraben-Fischbek"
      },
      "id": "g5Mzk"
    },
    {
      "type": "Feature",
      "geometry": {
        "type": "Point",
        "coordinates": [
          7.994404,
          50.961741
        ]
      },
      "properties": {
        "name": "6630 Kreuztal"
      },
      "id": "k2NTU"
    },
    {
      "type": "Feature",
      "geometry": {
        "type": "Point",
        "coordinates": [
          7.850735,
          51.028973
        ]
      },
      "properties": {
        "name": "6930 Olpe"
      },
      "id": "MyOTk"
    },
    {
      "type": "Feature",
      "geometry": {
        "type": "Point",
        "coordinates": [
          9.874054,
          53.591769
        ]
      },
      "properties": {
        "name": "8170 Hamburg-Altona, Lurup-Center"
      },
      "id": "A5MjQ"
    },
    {
      "type": "Feature",
      "geometry": {
        "type": "Point",
        "coordinates": [
          8.53959,
          50.903094
        ]
      },
      "properties": {
        "name": "8240 Biedenkopf"
      },
      "id": "cyNjU"
    },
    {
      "type": "Feature",
      "geometry": {
        "type": "Point",
        "coordinates": [
          7.216001,
          53.590321
        ]
      },
      "properties": {
        "name": "8320 Norden"
      },
      "id": "Q3MDk"
    },
    {
      "type": "Feature",
      "geometry": {
        "type": "Point",
        "coordinates": [
          6.744141,
          51.525523
        ]
      },
      "properties": {
        "name": "8400 Duisburg-Aldenrade"
      },
      "id": "IxMjY"
    },
    {
      "type": "Feature",
      "geometry": {
        "type": "Point",
        "coordinates": [
          6.549397,
          51.499864
        ]
      },
      "properties": {
        "name": "8690 Kamp-Lintfort"
      },
      "id": "QxMTY"
    },
    {
      "type": "Feature",
      "geometry": {
        "type": "Point",
        "coordinates": [
          6.11946,
          50.963154
        ]
      },
      "properties": {
        "name": "8740 Geilenkirchen"
      },
      "id": "YyNjk"
    },
    {
      "type": "Feature",
      "geometry": {
        "type": "Point",
        "coordinates": [
          12.485721,
          50.74684
        ]
      },
      "properties": {
        "name": "5970 Zwickau-Pölbitz"
      },
      "id": "gxODA"
    },
    {
      "type": "Feature",
      "geometry": {
        "type": "Point",
        "coordinates": [
          10.095094,
          53.587719
        ]
      },
      "properties": {
        "name": "1690 Hamburg-Wandsbek"
      },
      "id": "QxNzA"
    },
    {
      "type": "Feature",
      "geometry": {
        "type": "Point",
        "coordinates": [
          9.97447,
          53.60119
        ]
      },
      "properties": {
        "name": "1760 Hamburg-Nord, Nedderfeld Center"
      },
      "id": "Q1NDA"
    },
    {
      "type": "Feature",
      "geometry": {
        "type": "Point",
        "coordinates": [
          10.552663,
          52.967203
        ]
      },
      "properties": {
        "name": "1973 Uelzen"
      },
      "id": "Q2NDY"
    },
    {
      "type": "Feature",
      "geometry": {
        "type": "Point",
        "coordinates": [
          13.067932,
          52.392308
        ]
      },
      "properties": {
        "name": "2850 Potsdam-Innenstadt, Bahnhofspassagen"
      },
      "id": "YwODY"
    },
    {
      "type": "Feature",
      "geometry": {
        "type": "Point",
        "coordinates": [
          8.67811,
          53.038759
        ]
      },
      "properties": {
        "name": "4040 Delmenhorst-Annenriede"
      },
      "id": "kzNjc"
    },
    {
      "type": "Feature",
      "geometry": {
        "type": "Point",
        "coordinates": [
          11.599181,
          49.964486
        ]
      },
      "properties": {
        "name": "4360 Bayreuth"
      },
      "id": "cxNzY"
    },
    {
      "type": "Feature",
      "geometry": {
        "type": "Point",
        "coordinates": [
          9.329302,
          52.075292
        ]
      },
      "properties": {
        "name": "4530 Hameln, Multimarkt"
      },
      "id": "cwOTM"
    },
    {
      "type": "Feature",
      "geometry": {
        "type": "Point",
        "coordinates": [
          8.360918,
          51.664757
        ]
      },
      "properties": {
        "name": "4553 Lippstadt-Kernstadt, Bökenförder Str."
      },
      "id": "k2ODc"
    },
    {
      "type": "Feature",
      "geometry": {
        "type": "Point",
        "coordinates": [
          10.152676,
          53.547056
        ]
      },
      "properties": {
        "name": "4693 Oststeinbek, Ostkreuz Center"
      },
      "id": "c3OTA"
    },
    {
      "type": "Feature",
      "geometry": {
        "type": "Point",
        "coordinates": [
          7.289016,
          52.692245
        ]
      },
      "properties": {
        "name": "4760 Meppen"
      },
      "id": "A0MTQ"
    },
    {
      "type": "Feature",
      "geometry": {
        "type": "Point",
        "coordinates": [
          8.708071,
          53.17982
        ]
      },
      "properties": {
        "name": "4763 Ritterhude"
      },
      "id": "MwNTQ"
    },
    {
      "type": "Feature",
      "geometry": {
        "type": "Point",
        "coordinates": [
          9.90013,
          51.548964
        ]
      },
      "properties": {
        "name": "5060 Göttingen-Weststadt"
      },
      "id": "c3OTE"
    },
    {
      "type": "Feature",
      "geometry": {
        "type": "Point",
        "coordinates": [
          8.892515,
          53.059584
        ]
      },
      "properties": {
        "name": "6120 Bremen-Sebaldsbrück"
      },
      "id": "MwMTQ"
    },
    {
      "type": "Feature",
      "geometry": {
        "type": "Point",
        "coordinates": [
          13.093944,
          52.36426
        ]
      },
      "properties": {
        "name": "7340 Potsdam-Waldstadt"
      },
      "id": "E2NjU"
    },
    {
      "type": "Feature",
      "geometry": {
        "type": "Point",
        "coordinates": [
          10.528282,
          52.216738
        ]
      },
      "properties": {
        "name": "7410 Braunschweig-Stöckheim"
      },
      "id": "I2NDI"
    },
    {
      "type": "Feature",
      "geometry": {
        "type": "Point",
        "coordinates": [
          9.821391,
          51.987556
        ]
      },
      "properties": {
        "name": "7820 Alfeld (Leine)"
      },
      "id": "k4NzY"
    },
    {
      "type": "Feature",
      "geometry": {
        "type": "Point",
        "coordinates": [
          10.207039,
          53.487682
        ]
      },
      "properties": {
        "name": "7880 Hamburg-Bergedorf, City-Center"
      },
      "id": "AyOTE"
    },
    {
      "type": "Feature",
      "geometry": {
        "type": "Point",
        "coordinates": [
          8.081592,
          51.560891
        ]
      },
      "properties": {
        "name": "1600 Soest"
      },
      "id": "k5NTI"
    },
    {
      "type": "Feature",
      "geometry": {
        "type": "Point",
        "coordinates": [
          7.049516,
          51.335552
        ]
      },
      "properties": {
        "name": "1770 Velbert"
      },
      "id": "QxMzk"
    },
    {
      "type": "Feature",
      "geometry": {
        "type": "Point",
        "coordinates": [
          7.098895,
          51.654454
        ]
      },
      "properties": {
        "name": "1930 Marl, Marler Stern"
      },
      "id": "EwMjk"
    },
    {
      "type": "Feature",
      "geometry": {
        "type": "Point",
        "coordinates": [
          9.431183,
          48.96274
        ]
      },
      "properties": {
        "name": "2210 Backnang, Sulzbacher Str."
      },
      "id": "kyOTg"
    },
    {
      "type": "Feature",
      "geometry": {
        "type": "Point",
        "coordinates": [
          8.608271,
          49.9028
        ]
      },
      "properties": {
        "name": "3980 Weiterstadt"
      },
      "id": "YxNzM"
    },
    {
      "type": "Feature",
      "geometry": {
        "type": "Point",
        "coordinates": [
          7.432428,
          51.476806
        ]
      },
      "properties": {
        "name": "4420 Dortmund-Hombruch"
      },
      "id": "czMzM"
    },
    {
      "type": "Feature",
      "geometry": {
        "type": "Point",
        "coordinates": [
          13.417482,
          48.557697
        ]
      },
      "properties": {
        "name": "4850 Passau"
      },
      "id": "czMjE"
    },
    {
      "type": "Feature",
      "geometry": {
        "type": "Point",
        "coordinates": [
          9.977045,
          49.812314
        ]
      },
      "properties": {
        "name": "4873 Würzburg-Lengfeld"
      },
      "id": "c3MTY"
    },
    {
      "type": "Feature",
      "geometry": {
        "type": "Point",
        "coordinates": [
          13.609786,
          52.314356
        ]
      },
      "properties": {
        "name": "4893 Wildau, A10 Center"
      },
      "id": "E0NzE"
    },
    {
      "type": "Feature",
      "geometry": {
        "type": "Point",
        "coordinates": [
          6.612343,
          51.451948
        ]
      },
      "properties": {
        "name": "5143 Moers-Hülsdonk"
      },
      "id": "UxODg"
    },
    {
      "type": "Feature",
      "geometry": {
        "type": "Point",
        "coordinates": [
          7.511092,
          51.518404
        ]
      },
      "properties": {
        "name": "5830 Dortmund-Innenstadt-Ost"
      },
      "id": "Y3NTg"
    },
    {
      "type": "Feature",
      "geometry": {
        "type": "Point",
        "coordinates": [
          9.228532,
          48.840094
        ]
      },
      "properties": {
        "name": "5860 Stuttgart-Mühlhausen"
      },
      "id": "gyNDQ"
    },
    {
      "type": "Feature",
      "geometry": {
        "type": "Point",
        "coordinates": [
          7.12841,
          51.663462
        ]
      },
      "properties": {
        "name": "6180 Marl, Lipper Weg"
      },
      "id": "k4NjQ"
    },
    {
      "type": "Feature",
      "geometry": {
        "type": "Point",
        "coordinates": [
          6.13882,
          51.798852
        ]
      },
      "properties": {
        "name": "6610 Kleve, Flutstr."
      },
      "id": "U3MDY"
    },
    {
      "type": "Feature",
      "geometry": {
        "type": "Point",
        "coordinates": [
          6.307123,
          51.078535
        ]
      },
      "properties": {
        "name": "6770 Erkelenz"
      },
      "id": "kzODI"
    },
    {
      "type": "Feature",
      "geometry": {
        "type": "Point",
        "coordinates": [
          7.130545,
          51.482555
        ]
      },
      "properties": {
        "name": "7570 Bochum-Wattenscheid, Gertrudiscenter"
      },
      "id": "MwMDM"
    },
    {
      "type": "Feature",
      "geometry": {
        "type": "Point",
        "coordinates": [
          6.273161,
          51.305208
        ]
      },
      "properties": {
        "name": "8650 Nettetal, Ludbach-Passage"
      },
      "id": "UwODQ"
    },
    {
      "type": "Feature",
      "geometry": {
        "type": "Point",
        "coordinates": [
          12.60974,
          52.409141
        ]
      },
      "properties": {
        "name": "3270 Brandenburg, Einkaufszentrum Wust"
      },
      "id": "c1NTQ"
    },
    {
      "type": "Feature",
      "geometry": {
        "type": "Point",
        "coordinates": [
          11.454685,
          50.65965
        ]
      },
      "properties": {
        "name": "3520 Unterwellenborn"
      },
      "id": "AzNDU"
    },
    {
      "type": "Feature",
      "geometry": {
        "type": "Point",
        "coordinates": [
          13.461556,
          52.523758
        ]
      },
      "properties": {
        "name": "4460 Berlin-Prenzlauer Berg, Hermann-Blankenstein-Str."
      },
      "id": "k1OTI"
    },
    {
      "type": "Feature",
      "geometry": {
        "type": "Point",
        "coordinates": [
          14.522783,
          52.362858
        ]
      },
      "properties": {
        "name": "4660 Frankfurt (Oder), Spitzkrug Multi Center"
      },
      "id": "QyMjg"
    },
    {
      "type": "Feature",
      "geometry": {
        "type": "Point",
        "coordinates": [
          10.520246,
          52.282803
        ]
      },
      "properties": {
        "name": "4903 Braunschweig-Nordstadt"
      },
      "id": "UzNDM"
    },
    {
      "type": "Feature",
      "geometry": {
        "type": "Point",
        "coordinates": [
          11.150823,
          52.856758
        ]
      },
      "properties": {
        "name": "5620 Salzwedel"
      },
      "id": "E0NDA"
    },
    {
      "type": "Feature",
      "geometry": {
        "type": "Point",
        "coordinates": [
          13.381192,
          52.409661
        ]
      },
      "properties": {
        "name": "6060 Berlin-Marienfelde"
      },
      "id": "IyNTc"
    },
    {
      "type": "Feature",
      "geometry": {
        "type": "Point",
        "coordinates": [
          13.495417,
          52.634544
        ]
      },
      "properties": {
        "name": "6070 Berlin-Buch"
      },
      "id": "M4MjQ"
    },
    {
      "type": "Feature",
      "geometry": {
        "type": "Point",
        "coordinates": [
          13.286387,
          52.417243
        ]
      },
      "properties": {
        "name": "6490 Berlin-Lichterfelde, Goerzallee"
      },
      "id": "Y1MDk"
    },
    {
      "type": "Feature",
      "geometry": {
        "type": "Point",
        "coordinates": [
          14.000825,
          53.504068
        ]
      },
      "properties": {
        "name": "6530 Pasewalk"
      },
      "id": "gwMjY"
    },
    {
      "type": "Feature",
      "geometry": {
        "type": "Point",
        "coordinates": [
          13.505298,
          52.548256
        ]
      },
      "properties": {
        "name": "6620 Berlin-Alt-Hohenschönhausen, Storchenhof"
      },
      "id": "YwNzA"
    },
    {
      "type": "Feature",
      "geometry": {
        "type": "Point",
        "coordinates": [
          13.293425,
          53.556422
        ]
      },
      "properties": {
        "name": "6780 Neubrandenburg, Juri-Gagarin-Ring"
      },
      "id": "Y4MjU"
    },
    {
      "type": "Feature",
      "geometry": {
        "type": "Point",
        "coordinates": [
          13.030611,
          52.389515
        ]
      },
      "properties": {
        "name": "6960 Potsdam-West"
      },
      "id": "I4MDM"
    },
    {
      "type": "Feature",
      "geometry": {
        "type": "Point",
        "coordinates": [
          13.432213,
          52.35702
        ]
      },
      "properties": {
        "name": "8110 Blankenfelde-Mahlow"
      },
      "id": "A0NDk"
    },
    {
      "type": "Feature",
      "geometry": {
        "type": "Point",
        "coordinates": [
          9.971112,
          52.800517
        ]
      },
      "properties": {
        "name": "8370 Bergen"
      },
      "id": "Q1Mjg"
    },
    {
      "type": "Feature",
      "geometry": {
        "type": "Point",
        "coordinates": [
          13.751187,
          52.422359
        ]
      },
      "properties": {
        "name": "8680 Erkner"
      },
      "id": "Y2ODk"
    },
    {
      "type": "Feature",
      "geometry": {
        "type": "Point",
        "coordinates": [
          13.439959,
          52.224191
        ]
      },
      "properties": {
        "name": "8770 Zossen"
      },
      "id": "gzNDQ"
    },
    {
      "type": "Feature",
      "geometry": {
        "type": "Point",
        "coordinates": [
          7.104496,
          49.281328
        ]
      },
      "properties": {
        "name": "1860 St. Ingbert"
      },
      "id": "Y0NDc"
    },
    {
      "type": "Feature",
      "geometry": {
        "type": "Point",
        "coordinates": [
          6.713698,
          49.368681
        ]
      },
      "properties": {
        "name": "1870 Dillingen/Saar"
      },
      "id": "Y1NTU"
    },
    {
      "type": "Feature",
      "geometry": {
        "type": "Point",
        "coordinates": [
          6.871144,
          49.437377
        ]
      },
      "properties": {
        "name": "1890 Schmelz"
      },
      "id": "Q0NDM"
    },
    {
      "type": "Feature",
      "geometry": {
        "type": "Point",
        "coordinates": [
          6.526517,
          49.977325
        ]
      },
      "properties": {
        "name": "1910 Bitburg"
      },
      "id": "c1MDk"
    },
    {
      "type": "Feature",
      "geometry": {
        "type": "Point",
        "coordinates": [
          6.952624,
          49.67873
        ]
      },
      "properties": {
        "name": "1920 Hermeskeil"
      },
      "id": "A2ODg"
    },
    {
      "type": "Feature",
      "geometry": {
        "type": "Point",
        "coordinates": [
          6.905192,
          49.408788
        ]
      },
      "properties": {
        "name": "3920 Lebach"
      },
      "id": "k4Nzg"
    },
    {
      "type": "Feature",
      "geometry": {
        "type": "Point",
        "coordinates": [
          13.419821,
          54.422813
        ]
      },
      "properties": {
        "name": "4023 Bergen auf Rügen"
      },
      "id": "g0MjY"
    },
    {
      "type": "Feature",
      "geometry": {
        "type": "Point",
        "coordinates": [
          6.778623,
          51.208964
        ]
      },
      "properties": {
        "name": "4193 Düsseldorf-Friedrichstadt"
      },
      "id": "U0MzQ"
    },
    {
      "type": "Feature",
      "geometry": {
        "type": "Point",
        "coordinates": [
          8.389526,
          48.945557
        ]
      },
      "properties": {
        "name": "4233 Ettlingen"
      },
      "id": "UyMDU"
    },
    {
      "type": "Feature",
      "geometry": {
        "type": "Point",
        "coordinates": [
          6.624273,
          49.755736
        ]
      },
      "properties": {
        "name": "6040 Trier, Aachener Str."
      },
      "id": "M0NTA"
    },
    {
      "type": "Feature",
      "geometry": {
        "type": "Point",
        "coordinates": [
          7.18398,
          49.329524
        ]
      },
      "properties": {
        "name": "6880 Neunkirchen"
      },
      "id": "YxODg"
    },
    {
      "type": "Feature",
      "geometry": {
        "type": "Point",
        "coordinates": [
          10.218433,
          50.03842
        ]
      },
      "properties": {
        "name": "7740 Schweinfurt"
      },
      "id": "g5NTI"
    },
    {
      "type": "Feature",
      "geometry": {
        "type": "Point",
        "coordinates": [
          8.703682,
          50.030833
        ]
      },
      "properties": {
        "name": "4163 Dreieich"
      },
      "id": "E2NTM"
    },
    {
      "type": "Feature",
      "geometry": {
        "type": "Point",
        "coordinates": [
          9.076048,
          48.807648
        ]
      },
      "properties": {
        "name": "5113 Gerlingen"
      },
      "id": "gyMDI"
    },
    {
      "type": "Feature",
      "geometry": {
        "type": "Point",
        "coordinates": [
          9.048947,
          48.202106
        ]
      },
      "properties": {
        "name": "8480 Albstadt, Sigmaringer Str."
      },
      "id": "QzNzI"
    },
    {
      "type": "Feature",
      "geometry": {
        "type": "Point",
        "coordinates": [
          7.972957,
          47.55954
        ]
      },
      "properties": {
        "name": "8490 Bad Säckingen"
      },
      "id": "c5NDE"
    },
    {
      "type": "Feature",
      "geometry": {
        "type": "Point",
        "coordinates": [
          8.351455,
          49.547064
        ]
      },
      "properties": {
        "name": "8510 Frankenthal"
      },
      "id": "Q3ODg"
    },
    {
      "type": "Feature",
      "geometry": {
        "type": "Point",
        "coordinates": [
          8.685765,
          49.367333
        ]
      },
      "properties": {
        "name": "8520 Heidelberg-Rohrbach"
      },
      "id": "cxNjg"
    },
    {
      "type": "Feature",
      "geometry": {
        "type": "Point",
        "coordinates": [
          8.352034,
          49.009864
        ]
      },
      "properties": {
        "name": "8530 Karlsruhe-Grünwinkel"
      },
      "id": "M1Nzc"
    },
    {
      "type": "Feature",
      "geometry": {
        "type": "Point",
        "coordinates": [
          8.695046,
          49.214135
        ]
      },
      "properties": {
        "name": "8540 Östringen"
      },
      "id": "Q4NTE"
    },
    {
      "type": "Feature",
      "geometry": {
        "type": "Point",
        "coordinates": [
          8.722383,
          48.896514
        ]
      },
      "properties": {
        "name": "8550 Pforzheim-Oststadt"
      },
      "id": "Q5MDQ"
    },
    {
      "type": "Feature",
      "geometry": {
        "type": "Point",
        "coordinates": [
          8.667414,
          48.901046
        ]
      },
      "properties": {
        "name": "8560 Pforzheim-Nordstadt, Wilferdinger Höhe"
      },
      "id": "I5NTE"
    },
    {
      "type": "Feature",
      "geometry": {
        "type": "Point",
        "coordinates": [
          7.798904,
          47.575773
        ]
      },
      "properties": {
        "name": "8570 Rheinfelden"
      },
      "id": "g1NzE"
    },
    {
      "type": "Feature",
      "geometry": {
        "type": "Point",
        "coordinates": [
          8.218444,
          47.624667
        ]
      },
      "properties": {
        "name": "8580 Waldshut-Tiengen"
      },
      "id": "YzMDQ"
    },
    {
      "type": "Feature",
      "geometry": {
        "type": "Point",
        "coordinates": [
          13.31219,
          52.423256
        ]
      },
      "properties": {
        "name": "1700 Berlin-Lichterfelde, Ostpreußendamm"
      },
      "id": "YyNjc"
    },
    {
      "type": "Feature",
      "geometry": {
        "type": "Point",
        "coordinates": [
          13.538471,
          52.533676
        ]
      },
      "properties": {
        "name": "1780 Berlin-Marzahn"
      },
      "id": "MwNzE"
    },
    {
      "type": "Feature",
      "geometry": {
        "type": "Point",
        "coordinates": [
          13.377067,
          52.468067
        ]
      },
      "properties": {
        "name": "1960 Berlin-Tempelhof"
      },
      "id": "E2ODM"
    },
    {
      "type": "Feature",
      "geometry": {
        "type": "Point",
        "coordinates": [
          13.328648,
          52.567691
        ]
      },
      "properties": {
        "name": "1980 Berlin-Reinickendorf"
      },
      "id": "QxMTE"
    },
    {
      "type": "Feature",
      "geometry": {
        "type": "Point",
        "coordinates": [
          13.220233,
          52.537438
        ]
      },
      "properties": {
        "name": "3290 Berlin-Haselhorst"
      },
      "id": "E1NDc"
    },
    {
      "type": "Feature",
      "geometry": {
        "type": "Point",
        "coordinates": [
          13.456498,
          52.534012
        ]
      },
      "properties": {
        "name": "3330 Berlin-Prenzlauer Berg, Storkower Str."
      },
      "id": "MyNDQ"
    },
    {
      "type": "Feature",
      "geometry": {
        "type": "Point",
        "coordinates": [
          13.476464,
          52.514455
        ]
      },
      "properties": {
        "name": "4033 Berlin-Lichtenberg, Ring-Center II"
      },
      "id": "gwMTg"
    },
    {
      "type": "Feature",
      "geometry": {
        "type": "Point",
        "coordinates": [
          13.335428,
          52.603526
        ]
      },
      "properties": {
        "name": "4790 Berlin-Wittenau"
      },
      "id": "Y3NTY"
    },
    {
      "type": "Feature",
      "geometry": {
        "type": "Point",
        "coordinates": [
          13.558062,
          52.506808
        ]
      },
      "properties": {
        "name": "6200 Berlin-Biesdorf, Biesdorf Center"
      },
      "id": "E5NzA"
    },
    {
      "type": "Feature",
      "geometry": {
        "type": "Point",
        "coordinates": [
          13.497096,
          52.499354
        ]
      },
      "properties": {
        "name": "6740 Berlin-Friedrichsfelde"
      },
      "id": "Y1MDQ"
    },